City,Country,Cloudiness,Date,Humidity,Lat,Lng,Max Temp,Wind Speed
Altona,US,90,1540521300,57,41.11,-90.16,50.0,6.93
Rikitea,PF,24,1540523126,100,-23.12,-134.97,71.54,9.33
Aklavik,CA,40,1540520100,92,68.22,-135.01,17.6,5.82
Zhigansk,RU,56,1540523127,79,66.77,123.37,6.78,3.96
Lebu,ET,12,1540523128,80,8.96,38.73,38.46,2.73
Adrar,DZ,0,1540519200,41,27.87,-0.29,59.0,9.17
Peniche,PT,90,1540519200,100,39.36,-9.38,57.2,1.12
Sol-Iletsk,RU,68,1540523128,49,51.16,55.0,62.76,18.05
Puerto Ayora,EC,0,1540523129,100,-0.74,-90.35,69.47,14.03
Atuona,PF,8,1540523129,100,-9.8,-139.03,79.95,15.82
Norman Wells,CA,75,1540519200,92,65.28,-126.83,26.6,2.24
Port Lincoln,AU,0,1540522555,82,-34.72,135.86,64.43,12.8
Saint-Philippe,CA,90,1540520100,50,45.36,-73.48,33.8,11.41
Guilin,CN,75,1540519200,64,25.28,110.29,73.4,8.95
Belmonte,PT,56,1540523131,84,40.36,-7.35,47.33,2.73
Talcahuano,CL,40,1540519200,87,-36.72,-73.12,55.4,6.93
Kapaa,US,40,1540518960,74,22.08,-159.32,84.2,13.87
Kupang,ID,0,1540523132,69,-10.16,123.6,89.09,4.18
Hermanus,ZA,12,1540523132,90,-34.42,19.24,56.69,3.74
Port Hardy,CA,5,1540519200,81,50.7,-127.42,51.8,10.29
Daru,SL,32,1540522578,89,7.99,-10.85,73.79,3.06
Tsabong,BW,0,1540523132,36,-26.02,22.4,53.49,2.95
Jamestown,AU,0,1540523133,31,-33.21,138.6,79.01,3.85
Broome,GB,64,1540520400,87,52.47,1.45,50.0,9.17
Punta Arenas,CL,90,1540519200,81,-53.16,-70.91,44.6,9.17
Thompson,CA,90,1540519200,79,55.74,-97.86,28.4,4.7
Hithadhoo,MV,44,1540523134,100,-0.6,73.08,81.71,7.99
Caravelas,BR,88,1540523134,100,-17.73,-39.27,74.51,12.8
Vaini,IN,0,1540523134,83,15.34,74.49,74.91,7.76
Albany,US,75,1540522260,64,42.65,-73.75,37.4,3.36
Khatanga,RU,88,1540523135,82,71.98,102.47,9.84,8.77
Tuktoyaktuk,CA,20,1540519200,85,69.44,-133.03,15.8,9.78
Vanimo,PG,24,1540522567,100,-2.67,141.3,81.48,4.63
Beloha,MG,0,1540523135,86,-25.17,45.06,65.64,11.01
Arlit,NE,0,1540523135,35,18.74,7.39,69.38,7.2
Chokurdakh,RU,12,1540523136,84,70.62,147.9,3.36,4.52
Makakilo City,US,20,1540519020,58,21.35,-158.09,86.0,6.93
Barra,GM,12,1540519200,94,13.49,-16.54,78.8,8.05
Arraial do Cabo,BR,92,1540523137,100,-22.97,-42.02,70.82,18.5
Cherskiy,RU,0,1540523137,71,68.75,161.3,-5.42,2.17
Kruisfontein,ZA,20,1540523137,89,-34.0,24.73,60.38,5.97
Cidreira,BR,68,1540522587,94,-30.17,-50.22,65.19,8.43
Gdynia,PL,40,1540522800,100,54.52,18.54,42.8,4.7
Baghdad,IQ,75,1540522800,73,33.3,44.38,71.6,11.41
San Jose,PH,0,1540522899,67,15.79,120.99,84.9,1.72
Tasiilaq,GL,20,1540522200,57,65.61,-37.64,23.0,3.36
Maloy,ID,32,1540523141,69,1.0,118.1,85.89,2.39
Castro,CL,80,1540522989,93,-42.48,-73.76,46.11,0.38
Pangnirtung,CA,76,1540523082,93,66.15,-65.72,18.71,8.1
Baton Rouge,US,90,1540518780,93,30.45,-91.15,64.4,6.93
Dombarovskiy,RU,44,1540523142,43,50.76,59.54,56.55,20.74
Dingzhou,CN,0,1540519200,15,38.51,115.0,57.2,13.42
Petropavlovsk-Kamchatskiy,RU,75,1540521000,87,53.05,158.65,44.6,15.66
Alta Floresta,BR,20,1540522573,75,-9.87,-56.08,78.24,3.4
Victoria,BN,75,1540521000,88,5.28,115.24,86.0,2.24
Clyde River,CA,90,1540521600,100,70.47,-68.59,17.6,13.87
Poum,MK,0,1540523144,76,41.28,20.71,26.81,1.83
Tiksi,RU,0,1540523144,72,71.64,128.87,-2.49,2.73
Butaritari,KI,12,1540523144,100,3.07,172.79,85.89,4.97
Bluff,AU,0,1540523144,29,-23.58,149.07,95.57,4.74
Cape Town,ZA,0,1540519200,88,-33.93,18.42,62.6,13.87
Ikom,NG,0,1540522572,94,5.96,8.72,69.56,2.73
Kazerun,IR,24,1540523145,82,29.62,51.65,56.78,1.95
Port Elizabeth,US,1,1540522500,100,39.31,-74.98,48.2,5.86
Santiago de Cao,PE,0,1540519200,88,-7.96,-79.24,62.6,8.05
Ushuaia,AR,0,1540519200,52,-54.81,-68.31,46.4,5.82
Busselton,AU,24,1540523133,84,-33.64,115.35,68.34,11.9
Lavrentiya,RU,88,1540523146,100,65.58,-170.99,37.07,32.03
Cabo San Lucas,MX,75,1540518000,73,22.89,-109.91,77.0,6.93
Carnarvon,ZA,0,1540523147,30,-30.97,22.13,49.08,2.73
Atar,MR,92,1540523147,29,20.52,-13.05,84.36,8.32
Nanortalik,GL,92,1540523147,100,60.14,-45.24,31.13,23.2
Kurchum,KZ,0,1540523033,82,48.57,83.65,36.48,5.75
Upernavik,GL,0,1540523148,100,72.79,-56.15,17.94,8.21
Viedma,AR,100,1540523059,94,-40.81,-62.99,51.6,10.11
Kodinsk,RU,88,1540523114,84,58.6,99.18,36.21,6.31
Tuatapere,NZ,64,1540523148,100,-46.13,167.69,49.67,3.74
Obo,CF,64,1540523149,96,5.39,26.49,68.12,3.62
New Norfolk,AU,40,1540521000,41,-42.78,147.06,59.0,6.93
Hofn,IS,92,1540522564,100,64.25,-15.21,37.11,11.9
Zhigalovo,RU,88,1540523150,81,54.81,105.15,32.25,3.74
Grand Gaube,MU,40,1540519200,82,-20.01,57.66,68.0,1.12
Severo-Kurilsk,RU,92,1540523151,95,50.68,156.12,45.71,12.68
Provideniya,RU,75,1540521000,74,64.42,-173.23,33.8,24.61
Miramar,CR,75,1540520460,94,10.09,-84.73,69.8,2.24
Souillac,FR,8,1540521000,87,45.6,-0.6,44.6,3.4
Tautira,PF,75,1540521000,69,-17.73,-149.15,82.4,3.36
Mataura,NZ,12,1540523152,83,-46.19,168.86,55.79,4.63
Atlantic Beach,US,90,1540520040,88,30.33,-81.4,71.6,11.41
Pevek,RU,76,1540523153,100,69.7,170.27,15.33,4.41
Cumana,VE,20,1540522800,88,10.46,-64.17,80.6,2.06
Mar del Plata,AR,20,1540523010,85,-46.43,-67.52,50.48,11.68
Koshurnikovo,RU,88,1540523153,62,54.3,93.39,32.84,2.62
Araouane,ML,8,1540523154,28,18.9,-3.53,72.44,10.0
Gwanda,ZW,0,1540523154,75,-20.94,29.0,52.86,4.52
Sambava,MG,100,1540523154,100,-14.27,50.17,72.66,14.7
Cabedelo,BR,40,1540519200,94,-6.97,-34.84,75.2,5.82
Alihe,CN,92,1540523155,88,50.57,123.73,30.18,11.23
Senges,BR,100,1540522974,99,-24.11,-49.46,64.74,3.18
Wagar,US,92,1540523155,97,31.44,-87.99,64.97,7.65
Okha,RU,76,1540523155,71,53.59,142.95,40.35,26.89
Bethel,US,90,1540518780,86,60.79,-161.76,37.4,10.29
Hobart,AU,40,1540521000,41,-42.88,147.33,59.0,6.93
Cayenne,GF,20,1540521000,88,4.94,-52.33,77.0,7.43
Puerto Cabezas,NI,20,1540523157,93,14.04,-83.39,82.79,12.46
Birin,SY,92,1540523157,98,35.01,36.67,54.93,16.37
Paita,PE,8,1540523158,86,-5.09,-81.11,64.43,8.21
Touros,BR,92,1540523158,90,-5.2,-35.46,77.34,11.79
Eureka,US,1,1540521300,100,40.8,-124.16,53.6,1.05
Babu,CN,88,1540523159,85,23.23,104.89,62.36,3.29
Faya,SA,20,1540519200,87,18.39,42.45,60.8,1.28
Ribeira Grande,PT,88,1540523188,99,38.52,-28.7,68.39,14.03
Amapa,HN,20,1540519200,83,15.09,-87.97,78.8,4.7
Kalangala,UG,75,1540521000,88,-0.32,32.29,71.6,13.87
Margate,AU,40,1540521000,41,-43.03,147.26,59.0,6.93
Constitucion,MX,5,1540518120,55,23.99,-104.67,60.8,5.82
Saint George,GR,0,1540518600,73,39.45,22.34,41.0,2.39
Roald,NO,36,1540522200,93,62.58,6.12,37.4,6.93
The Valley,AI,20,1540519200,78,18.22,-63.06,80.6,2.24
Padang,ID,20,1540523163,100,-0.92,100.36,82.34,3.85
Hanna,CA,64,1540523163,61,51.64,-111.93,39.32,4.29
Georgetown,GY,0,1540519200,94,6.8,-58.16,77.0,4.7
Mahebourg,MU,40,1540519200,82,-20.41,57.7,68.0,1.12
Mayaky,UA,56,1540523164,91,47.44,29.56,45.44,14.81
Saskylakh,RU,80,1540523132,82,71.97,114.09,13.04,8.99
Bam,IR,0,1540523164,72,29.11,58.36,50.66,2.51
Avarua,CK,90,1540519200,94,-21.21,-159.78,71.6,10.29
Dingle,PH,0,1540523165,60,11.0,122.67,88.01,8.99
Ust-Omchug,RU,92,1540523165,92,61.13,149.63,31.26,3.96
Sao Joao da Barra,BR,92,1540522649,100,-21.64,-41.05,72.3,20.85
Nhulunbuy,AU,20,1540521000,52,-12.18,136.78,87.8,12.75
Yellowknife,CA,40,1540519200,86,62.45,-114.38,33.8,10.29
Imbituba,BR,90,1540519200,100,-28.24,-48.67,68.0,13.8
Sirjan,IR,8,1540523167,78,29.44,55.67,44.85,5.75
Deputatskiy,RU,44,1540523167,64,69.3,139.9,-9.29,2.73
Fairview,US,1,1540522560,56,40.81,-74.0,44.6,8.1
Qaanaaq,GL,68,1540523168,100,77.48,-69.36,11.24,12.24
Ponta do Sol,BR,20,1540523168,93,-20.63,-46.0,62.85,2.39
Innisfail,CA,20,1540519200,52,52.02,-113.95,42.8,4.7
Ratnagiri,IN,36,1540523169,98,16.98,73.3,83.46,5.97
Namibe,AO,8,1540523134,95,-15.19,12.15,76.58,8.77
Newala,TZ,0,1540523170,87,-10.94,39.28,65.69,3.74
Sao Filipe,CV,24,1540522672,100,14.9,-24.5,78.06,10.78
Ketchikan,US,90,1540518960,81,55.34,-131.65,53.6,9.17
Airai,TL,0,1540523103,42,-8.93,125.41,86.7,1.61
Port Alfred,ZA,92,1540523171,98,-33.59,26.89,68.39,10.33
Magadan,RU,90,1540521000,100,59.56,150.8,41.0,20.13
Maceio,BR,40,1540522800,83,-9.67,-35.74,77.0,6.93
Gimli,CA,88,1540523171,94,50.63,-96.99,45.75,9.78
Talnakh,RU,80,1540523172,99,69.49,88.39,23.03,8.21
Bredasdorp,ZA,80,1540519200,82,-34.53,20.04,64.4,1.12
Muskegon,US,1,1540521660,80,43.23,-86.25,42.8,3.36
Westport,IE,12,1540523172,94,53.8,-9.52,45.53,20.29
Nuuk,GL,80,1540522200,58,64.17,-51.74,26.6,18.34
Dikson,RU,32,1540523173,100,73.51,80.55,24.74,21.07
Neumunster,DE,75,1540522200,87,54.07,9.98,48.2,6.93
Mindelo,PT,40,1540521000,100,41.31,-8.72,55.4,1.39
Praia da Vitoria,PT,40,1540519200,88,38.73,-27.07,66.2,16.49
East London,ZA,64,1540523174,100,-33.02,27.91,70.37,15.93
Malanje,AO,68,1540523175,79,-9.54,16.35,64.56,3.18
Lyuban,BY,88,1540523106,93,52.8,28.0,36.03,7.54
Maniwaki,CA,56,1540523175,88,46.38,-75.98,29.91,4.41
Hvide Sande,DK,92,1540522200,93,56.01,8.13,46.4,5.82
Esperance,TT,20,1540519200,88,10.24,-61.45,78.8,8.05
Sao Jose da Coroa Grande,BR,24,1540523177,97,-8.9,-35.15,75.0,7.76
Prigen,ID,24,1540523177,61,-7.7,112.63,82.56,1.05
Myitkyina,MM,0,1540523032,86,25.38,97.4,75.77,2.28
Virginia Beach,US,1,1540522440,75,36.85,-75.98,48.2,3.62
Guerrero Negro,MX,0,1540523058,95,27.97,-114.04,66.81,8.32
Bambous Virieux,MU,40,1540519200,82,-20.34,57.76,68.0,1.12
Contamana,PE,64,1540523178,94,-7.35,-75.01,76.67,1.72
Oil City,US,1,1540522560,86,41.43,-79.71,37.4,3.36
Leninsk-Kuznetskiy,RU,0,1540521000,59,54.66,86.17,37.4,4.47
Panguna,PG,80,1540523179,81,-6.32,155.48,83.01,4.07
Veraval,FR,90,1540521000,81,49.65,0.71,53.6,3.36
Cockburn Town,TC,0,1540523180,100,21.46,-71.14,82.11,13.47
Longyearbyen,NO,40,1540518600,63,78.22,15.63,28.4,9.17
Dabakala,CI,8,1540523180,88,8.36,-4.43,75.32,6.31
Clarence Town,AU,40,1540521000,64,-32.59,151.78,71.6,23.04
Goure,NE,0,1540523181,55,13.98,10.27,67.67,2.73
Den Helder,NL,75,1540522680,82,52.96,4.76,55.4,13.87
Shenkursk,RU,92,1540523181,88,62.11,42.91,30.63,4.74
Zaros,GR,20,1540520400,59,35.13,24.9,60.8,10.29
Pemberton,AU,32,1540523182,63,-34.44,116.03,69.92,11.23
Hibbing,US,75,1540521300,100,47.43,-92.94,46.4,3.36
Saldanha,PT,92,1540523033,85,41.42,-6.55,40.26,2.62
Saint-Pierre,FR,90,1540521000,100,48.95,4.24,41.0,2.24
Rafaela,AR,88,1540523157,77,-31.25,-61.49,68.03,9.44
Kaitangata,NZ,68,1540523183,77,-46.28,169.85,53.54,5.97
Lompoc,US,1,1540521300,77,34.64,-120.46,62.6,4.7
Liwonde,MW,0,1540523183,100,-15.05,35.2,58.44,4.63
Pacifica,US,1,1540521300,72,37.61,-122.49,69.8,4.41
Nikolskoye,RU,75,1540521000,92,59.7,30.79,30.2,2.24
Gamba,CN,0,1540523184,63,28.28,88.52,13.89,2.39
Kununurra,AU,0,1540521000,37,-15.77,128.74,96.8,5.82
Namatanai,PG,92,1540522598,100,-3.66,152.44,78.47,8.77
Polovinnoye,RU,0,1540523253,68,54.79,65.99,44.31,16.93
Workington,GB,92,1540523186,98,54.64,-3.55,47.01,20.07
Shelburne,CA,90,1540519200,93,44.08,-80.2,41.0,2.24
Faanui,PF,0,1540523186,99,-16.48,-151.75,81.62,11.68
Le Vauclin,MQ,0,1540521000,88,14.55,-60.84,75.2,3.36
Oxelosund,SE,0,1540522200,100,58.67,17.1,28.4,4.7
Atyrau,KZ,40,1540521000,100,47.1,51.92,51.8,11.18
Ilulissat,GL,0,1540522200,43,69.22,-51.1,15.8,13.87
San Andres,PH,32,1540523188,100,13.32,122.68,80.85,12.91
Eirunepe,BR,12,1540523188,90,-6.66,-69.87,77.88,2.17
Buchanan,LR,75,1540521000,94,5.88,-10.05,77.0,7.99
Trinidad,UY,36,1540519200,87,-33.52,-56.9,57.2,6.93
Nouadhibou,MR,20,1540519200,83,20.93,-17.03,73.4,10.29
Penzance,GB,80,1540518600,81,50.12,-5.53,51.8,12.75
Fukue,JP,20,1540521000,68,35.03,136.69,68.0,4.7
Pangai,TO,90,1540519200,94,-19.8,-174.35,75.2,8.05
Chuy,UY,48,1540523141,93,-33.69,-53.46,59.34,9.78
Rockland,US,90,1540522560,64,42.13,-70.92,42.8,9.17
Okakarara,NA,24,1540523191,89,-20.59,17.46,49.31,2.17
Fort Smith,US,90,1540522500,93,35.39,-94.42,53.6,5.82
Fortuna,ES,20,1540522800,93,38.18,-1.13,57.2,2.24
Noumea,NC,32,1540521000,43,-22.28,166.46,89.6,11.41
Beringovskiy,RU,0,1540523192,100,63.05,179.32,24.96,19.28
Teacapan,MX,64,1540523193,94,22.54,-105.74,71.76,2.39
Pedernales,EC,36,1540523193,92,0.07,-80.05,70.23,5.97
Iqaluit,CA,75,1540520160,79,63.75,-68.52,23.0,9.17
Sam Roi Yot,TH,20,1540519200,83,12.21,99.86,82.4,9.17
Mopipi,BW,56,1540523193,36,-21.2,24.86,65.73,10.56
Nurota,UZ,40,1540521000,25,40.56,65.69,64.4,16.11
Ixtapa,MX,20,1540518300,94,20.71,-105.21,80.6,4.7
Santa Rita,VE,8,1540523195,98,10.21,-67.56,69.29,2.51
Torbay,CA,90,1540519200,93,47.66,-52.73,46.4,26.4
Havoysund,NO,75,1540518600,100,71.0,24.66,35.6,14.99
Kodiak,US,90,1540522380,100,39.95,-94.76,48.2,5.82
Ancud,CL,88,1540523097,88,-41.87,-73.83,47.46,4.41
Matagami,NG,8,1540523196,92,9.67,8.4,65.33,2.17
Coahuayana,MX,24,1540523196,69,18.62,-100.35,69.78,1.95
Narsaq,GL,92,1540522200,63,60.91,-46.05,28.4,2.24
Bol,TD,0,1540523197,62,13.47,14.72,74.19,3.74
Lotoshino,RU,8,1540523197,88,56.23,35.64,26.49,4.97
Coquimbo,CL,0,1540519200,93,-29.95,-71.34,53.6,7.2
Vangaindrano,MG,56,1540523197,95,-23.35,47.6,60.69,2.06
Monjaras,HN,0,1540523198,88,13.2,-87.37,83.19,7.09
College,US,90,1540519080,67,64.86,-147.8,39.2,5.82
Los Llanos de Aridane,ES,24,1540521000,64,28.66,-17.92,68.0,4.7
Kavaratti,IN,12,1540523155,100,10.57,72.64,84.32,4.18
Sola,NO,75,1540520400,87,58.89,5.65,42.8,3.36
Shenjiamen,CN,8,1540523198,97,29.96,122.3,68.66,20.51
Port Keats,AU,0,1540523199,69,-14.25,129.55,93.32,5.75
Aleksandrovsk-Sakhalinskiy,RU,0,1540523199,80,50.9,142.16,43.14,11.01
Khvoynaya,RU,92,1540522918,97,58.9,34.53,29.69,4.85
Kamina,CD,100,1540523199,35,-8.74,25.0,81.71,11.01
Tevriz,RU,0,1540523200,90,57.51,72.4,37.52,8.21
Carutapera,BR,32,1540522674,86,-1.2,-46.02,79.64,9.78
Rochelle,US,40,1540521300,75,41.92,-89.07,46.4,4.7
Ewa Beach,US,20,1540519020,58,21.32,-158.01,86.0,6.93
San Patricio,PY,76,1540523109,84,-26.98,-56.83,73.65,3.62
Dicabisagan,PH,48,1540523200,99,17.08,122.42,79.46,8.43
Salalah,OM,0,1540518600,64,17.01,54.1,75.2,4.7
Lagoa,PT,20,1540521000,82,37.14,-8.45,66.2,4.7
Roebourne,AU,0,1540522978,28,-20.77,117.15,89.18,12.01
Quang Ngai,VN,48,1540523202,81,15.12,108.8,78.74,2.95
Nyimba,ZM,44,1540523202,59,-14.56,30.81,65.01,5.3
Hamilton,BM,20,1540518900,49,32.3,-64.78,69.8,8.05
Karratha,AU,0,1540522981,28,-20.74,116.85,89.18,12.01
Sangin,AF,0,1540523203,79,32.07,64.85,53.81,3.96
Fuling,CN,92,1540523203,100,29.71,107.39,62.85,2.95
Bijie,CN,88,1540523203,96,27.3,105.3,53.99,3.62
Pisco,PE,0,1540519200,88,-13.71,-76.2,62.6,9.17
Xinqing,CN,88,1540523204,69,48.28,129.53,42.92,8.88
Banda Aceh,ID,8,1540523204,92,5.56,95.32,80.94,2.73
Acapulco,MX,20,1540518360,78,16.86,-99.88,82.4,5.82
Hasaki,JP,75,1540521000,60,35.73,140.83,68.0,8.05
Warmbad,DE,68,1540520400,93,50.67,13.08,48.2,4.7
Mopti,ML,0,1540523205,75,14.49,-4.19,74.01,2.84
Sorland,NO,20,1540522200,92,67.67,12.69,30.2,4.7
Aubenas,FR,90,1540521000,76,44.62,4.39,55.4,6.93
Torres,BR,88,1540523206,100,-29.34,-49.73,66.54,10.45
Te Anau,NZ,56,1540523111,84,-45.41,167.72,50.93,3.29
Terra Rica,BR,92,1540523208,99,-22.73,-52.62,70.05,6.31
Tosya,TR,8,1540523208,79,41.02,34.04,24.69,2.62
Harper,US,1,1540520100,93,30.3,-99.24,60.8,3.06
Biak,ID,0,1540523208,66,-0.91,122.88,88.19,6.42
Linxia,CN,0,1540523209,73,35.6,103.21,37.2,3.29
Kaeo,NZ,8,1540523209,48,-35.1,173.78,71.63,12.68
Mitsamiouli,KM,8,1540523209,100,-11.38,43.28,75.86,9.66
Misratah,LY,0,1540523100,100,32.38,15.09,63.48,3.62
Camapua,BR,64,1540523210,91,-19.53,-54.04,70.14,2.84
Sagay,PH,24,1540523210,86,10.9,123.42,84.41,6.87
Klaksvik,FO,88,1540520400,100,62.23,-6.59,39.2,17.22
Rumoi,JP,75,1540519200,76,43.93,141.67,51.8,4.7
Dondo,MZ,20,1540519200,88,-19.62,34.74,68.0,5.82
Yerofey Pavlovich,RU,48,1540523211,50,53.97,121.97,29.28,7.87
Turukhansk,RU,92,1540523212,90,65.8,87.96,27.17,9.1
Gunnedah,AU,0,1540521000,18,-30.98,150.25,80.6,13.87
Drumheller,CA,64,1540523212,63,51.47,-112.7,38.87,3.18
Brisbane,AU,20,1540521000,69,-27.47,153.02,93.2,14.99
Ust-Uda,RU,92,1540522571,97,54.17,103.03,35.13,5.97
San Cristobal,EC,75,1540519200,87,-0.39,-78.55,55.4,6.93
Atagay,RU,32,1540523195,67,55.1,99.39,37.74,7.65
Saint Anthony,US,1,1540518960,70,43.97,-111.68,46.4,8.05
Takoradi,GH,48,1540523213,100,4.89,-1.75,77.79,6.42
Saint-Francois,FR,90,1540521000,93,46.42,3.91,44.6,2.62
Naze,NG,20,1540523214,97,5.43,7.07,72.3,3.29
Kahului,US,75,1540518960,78,20.89,-156.47,80.6,17.22
Gazojak,TM,0,1540523214,60,41.19,61.4,56.1,11.9
Jalu,LY,0,1540523214,81,29.03,21.55,60.6,6.76
Juneau,US,90,1540518960,81,58.3,-134.42,46.4,13.87
Bilibino,RU,0,1540523215,72,68.06,166.44,0.26,2.28
Thessalon,CA,90,1540522020,93,46.26,-83.55,44.6,7.43
Ust-Nera,RU,88,1540523215,86,64.57,143.24,12.45,2.39
Ferme-Neuve,CA,56,1540522437,100,46.7,-75.45,28.34,4.97
Lae,PG,75,1540519200,49,-6.72,146.98,89.6,5.82
Vestmannaeyjar,IS,0,1540523216,100,63.44,-20.27,36.71,20.51
Otane,NZ,88,1540523217,63,-39.89,176.62,59.66,3.74
Lubbock,US,1,1540520100,71,33.58,-101.86,57.2,8.05
Mount Gambier,AU,68,1540523073,80,-37.83,140.78,60.38,3.96
Kargil,PK,0,1540523217,66,34.56,76.13,-7.17,1.61
Atasu,KZ,0,1540523218,69,48.68,71.64,24.83,2.95
Hermiston,US,90,1540522380,66,45.84,-119.29,55.4,4.7
Itigi,TZ,8,1540523218,85,-5.7,34.5,60.78,8.1
Barrow,AR,20,1540523218,92,-38.31,-60.23,48.54,8.66
Portland,US,90,1540522380,100,45.52,-122.67,55.4,11.41
Rawson,AR,8,1540523177,93,-43.3,-65.11,49.8,10.67
Meshcherino,RU,90,1540521000,74,55.2,38.36,33.8,13.42
Ishigaki,JP,20,1540519200,69,24.34,124.16,78.8,5.82
Sobolevo,RU,88,1540523220,95,54.43,31.9,33.38,5.75
Huarmey,PE,36,1540523220,88,-10.07,-78.15,55.52,3.85
Galle,US,1,1540522560,93,29.74,-97.91,57.2,3.06
Bakchar,RU,0,1540523220,87,57.02,82.07,30.99,5.41
Kloulklubed,PW,75,1540522200,74,7.04,134.26,86.0,13.87
Marawi,PH,32,1540523221,83,8.0,124.29,77.61,3.06
Bandarbeyla,SO,92,1540523221,99,9.49,50.81,76.98,4.85
Pringsewu,ID,0,1540523222,71,-5.36,104.98,85.31,3.06
Valparaiso,US,90,1540521900,61,41.47,-87.06,48.2,4.7
Aras,YE,0,1540523222,77,14.28,44.38,37.74,1.39
Muisne,EC,64,1540523222,97,0.61,-80.02,69.15,3.85
Bangassou,CF,92,1540523222,100,4.74,22.82,69.29,2.39
Altay,CN,0,1540523223,55,47.83,88.13,19.56,2.84
Hilo,US,75,1540519860,74,19.71,-155.08,80.6,11.41
Port-Gentil,GA,36,1540523223,100,-0.72,8.78,77.88,5.97
North Bend,US,75,1540522560,87,43.41,-124.22,59.0,6.93
Codrington,AU,0,1540523224,54,-28.95,153.24,83.87,3.62
Machachi,EC,75,1540519200,87,-0.51,-78.57,55.4,6.93
Salinas,US,1,1540521300,52,36.67,-121.66,68.0,6.93
Ugoofaaru,MV,88,1540523225,100,5.67,73.0,82.16,9.66
Seoul,KR,90,1540522800,76,37.57,126.98,57.2,10.29
Nassjo,SE,8,1540522200,95,57.65,14.7,32.0,2.62
Nemuro,JP,40,1540519200,54,43.32,145.57,55.4,4.7
Palmer,AU,20,1540521000,59,-34.85,139.16,66.2,17.22
Merauke,ID,0,1540523226,56,-8.49,140.4,91.16,11.45
Ellisras,ZA,8,1540523022,54,-23.67,27.74,53.63,3.96
Kamaishi,JP,0,1540519200,62,39.28,141.86,57.2,1.12
Cavalcante,BR,0,1540523227,94,-13.79,-47.46,66.54,3.62
Moron,VE,80,1540523227,92,10.49,-68.2,70.14,2.39
Juba,EE,90,1540518600,100,57.82,26.93,35.6,4.7
Pilot Butte,CA,20,1540521480,74,50.48,-104.42,35.6,10.29
Jumla,NP,0,1540523228,73,29.28,82.18,30.45,2.17
Nizhniy Odes,RU,88,1540523228,96,63.64,54.86,37.83,4.18
Tiarei,PF,75,1540521000,69,-17.53,-149.33,82.4,3.36
Bubaque,GW,20,1540519200,88,11.28,-15.83,80.6,5.82
Isangel,VU,8,1540523090,99,-19.55,169.27,76.89,11.56
Hovd,NO,75,1540522200,93,63.83,10.7,37.4,6.53
Gizo,IL,75,1540521000,56,31.8,34.94,71.6,31.09
Manggar,ID,12,1540523230,79,-2.88,108.27,87.92,5.75
Eyl,SO,68,1540522679,100,7.98,49.82,75.59,2.95
Claremore,US,90,1540522500,93,36.31,-95.62,51.8,5.64
Ullapool,GB,88,1540523231,100,57.9,-5.16,44.81,16.82
Bathsheba,BB,20,1540519200,88,13.22,-59.52,77.0,3.36
Beyneu,KZ,68,1540523231,38,45.32,55.19,70.5,17.83
Sayyan,YE,0,1540523231,77,15.17,44.32,39.41,1.83
Anadyr,RU,0,1540521000,85,64.73,177.51,14.0,11.18
Impfondo,CD,88,1540523232,97,1.62,18.06,72.08,2.62
Barahona,DO,24,1540523232,100,18.21,-71.1,81.21,8.99
Nome,US,90,1540520100,77,30.04,-94.42,62.6,8.05
Hefei,CN,0,1540519200,42,31.82,117.22,64.4,15.66
Elizabeth City,US,1,1540522740,75,36.3,-76.22,50.0,3.62
Am Timan,TD,44,1540523233,84,11.04,20.28,70.46,2.84
Jabinyanah,TN,0,1540519200,82,35.03,10.91,60.8,3.36
Loandjili,CG,75,1540519200,100,-4.77,11.87,73.4,6.93
Boa Vista,BR,0,1540522800,65,2.82,-60.67,82.4,4.7
Russell,AR,40,1540519200,45,-33.01,-68.8,68.0,5.82
Galesong,ID,0,1540523236,78,-5.32,119.37,87.33,6.87
Axim,GH,32,1540523236,100,4.87,-2.24,79.41,8.77
Chapais,CA,90,1540519200,73,49.78,-74.86,21.2,4.7
Forestville,CA,75,1540519200,100,48.74,-69.09,32.0,24.16
La Palma,CO,64,1540523306,95,5.36,-74.39,68.66,0.94
Port Blair,IN,68,1540523307,100,11.67,92.75,83.33,8.21
Pierre,US,1,1540522380,75,44.37,-100.35,44.6,10.29
Walvis Bay,NA,0,1540519200,64,-22.95,14.51,69.8,6.93
Chiapa,MX,56,1540523308,97,18.47,-96.95,55.11,1.16
Santiago,CL,75,1540519200,51,-33.44,-70.65,60.8,5.82
Pilar,AR,75,1540519200,82,-34.46,-58.91,64.4,4.7
Seymchan,RU,92,1540523309,93,62.93,152.39,14.16,3.85
Salym,RU,24,1540523310,90,60.06,71.48,38.55,11.56
Birao,CF,8,1540523310,82,10.3,22.78,71.49,2.95
Vardo,US,1,1540522500,93,39.62,-77.74,44.6,2.17
San Jeronimo,PE,92,1540523310,90,-13.65,-73.37,45.75,1.95
Obregon,US,1,1540519020,25,32.86,-114.79,84.2,3.36
Gourcy,BF,24,1540523311,71,13.21,-2.36,76.94,3.4
Jinchang,CN,0,1540523311,75,38.52,102.19,37.56,3.96
Opopeo,MX,8,1540523312,78,19.41,-101.61,58.76,2.28
Alexandria,US,90,1540521300,87,31.31,-92.44,60.8,6.93
Ostrovnoy,RU,88,1540523312,88,68.05,39.51,31.98,13.69
Compostela,MX,40,1540518000,94,21.24,-104.9,69.8,1.95
Pacific Grove,US,1,1540521300,52,36.62,-121.92,68.0,6.93
Huangchuan,CN,75,1540519200,87,24.57,102.46,53.6,8.95
Barao de Melgaco,BR,0,1540519200,88,-16.19,-55.97,73.4,2.24
Udimskiy,RU,76,1540523314,98,61.14,45.92,30.63,4.74
Tanout,NE,0,1540523314,45,14.97,8.88,69.11,4.18
Rome,IT,20,1540520400,88,41.89,12.48,62.6,6.93
Srednekolymsk,RU,20,1540523315,69,67.46,153.71,2.01,3.4
Miraflores,CO,32,1540523316,95,5.2,-73.14,46.83,0.94
Lafiagi,NG,0,1540523317,91,8.85,5.42,75.81,5.97
Sitka,US,0,1540523317,91,37.17,-99.65,46.16,5.86
Belyy Yar,RU,88,1540521000,82,53.6,91.39,32.0,2.24
Kirakira,SB,56,1540523317,100,-10.46,161.92,81.08,6.42
Phan Thiet,VN,0,1540523275,92,10.93,108.1,84.32,7.99
Cienfuegos,CU,76,1540519080,100,22.15,-80.44,75.2,5.82
Kroya,ID,0,1540523318,68,-6.5,108.06,87.47,2.73
Kayes,ML,0,1540523318,77,14.44,-11.44,77.79,2.84
Mandalgovi,MN,0,1540523318,72,45.76,106.27,31.89,11.01
Beaupre,CA,75,1540519200,83,47.04,-70.9,32.0,9.17
Emerald,AU,0,1540523319,34,-23.53,148.16,94.58,4.63
Suihua,CN,92,1540523319,86,46.64,126.99,49.53,21.3
Beroroha,MG,0,1540523319,83,-21.68,45.17,58.44,2.62
Coolum Beach,AU,0,1540523320,43,-26.53,153.09,90.66,5.75
Port Moresby,PG,75,1540519200,62,-9.47,147.16,86.0,14.99
Tres Arroyos,AR,20,1540523320,92,-38.38,-60.28,48.54,8.66
Iberia,PE,12,1540523320,95,-11.41,-69.49,74.19,2.06
Mount Isa,AU,0,1540521000,13,-20.73,139.49,102.2,8.05
Saurimo,AO,64,1540523321,80,-9.66,20.4,66.45,2.39
Kaliganj,BD,0,1540523321,56,23.41,89.13,80.99,4.41
Sherlovaya Gora,RU,92,1540523321,83,50.53,116.31,29.73,23.2
Ubinskoye,RU,0,1540523322,74,55.31,79.68,30.63,3.96
Medina,SA,0,1540519200,44,24.47,39.61,78.8,11.41
Altamira,BR,48,1540523323,85,-3.2,-52.21,77.39,2.84
Nogales,US,1,1540519080,62,31.34,-110.94,60.8,6.93
Chernyshevskiy,RU,88,1540523323,88,63.01,112.47,25.23,8.43
Samarai,PG,44,1540523324,100,-10.62,150.67,78.56,11.45
Miandrivazo,MG,0,1540523324,88,-19.53,45.46,61.41,2.84
Sarh,TD,0,1540519200,88,9.14,18.39,73.4,2.84
Kajaani,FI,0,1540522200,86,64.22,27.73,30.2,3.36
Muli,IN,0,1540523324,64,22.62,71.45,74.28,4.63
Tual,ID,44,1540523325,95,-5.67,132.75,85.22,12.35
Igbo Ora,NG,0,1540523325,96,7.43,3.28,74.01,4.18
Bahia Blanca,AR,0,1540523136,91,-38.72,-62.27,56.24,13.47
Zhuji,CN,75,1540521000,64,29.72,120.23,71.6,13.42
Nanuque,BR,92,1540523171,97,-17.84,-40.35,73.29,6.76
Tateyama,JP,20,1540520580,35,36.66,137.31,73.4,14.99
Yaan,NG,0,1540523326,96,7.38,8.57,74.28,7.99
Mega,ET,92,1540523326,98,4.06,38.32,61.95,5.75
Antalaha,MG,68,1540523326,90,-14.9,50.28,69.29,9.66
Iwaki,JP,20,1540519200,59,37.05,140.89,60.8,4.7
Sompeta,IN,0,1540523327,41,18.93,84.6,82.61,4.18
Hay River,CA,20,1540519200,74,60.82,-115.79,37.4,10.29
Kurilsk,RU,0,1540523328,85,45.23,147.88,51.47,14.7
Maromitsa,RU,80,1540523328,100,59.87,48.01,33.6,2.95
Necochea,AR,20,1540523328,99,-38.55,-58.74,48.36,6.76
Kovdor,RU,24,1540523328,88,67.56,30.47,20.42,2.73
Kavieng,PG,80,1540523154,100,-2.57,150.8,82.2,12.24
Villamontes,BO,92,1540523329,91,-21.26,-63.47,67.53,2.62
Ginir,ET,92,1540523329,85,7.14,40.71,60.47,2.73
Challapata,BO,92,1540523329,93,-18.9,-66.78,41.61,1.39
Matara,PE,92,1540523236,90,-13.74,-72.9,45.75,1.95
Turinsk,RU,88,1540523330,66,58.04,63.7,48.68,11.23
Belomorsk,RU,80,1540523330,97,64.52,34.76,36.89,13.69
Pangoa,PE,80,1540523330,95,-12.12,-73.0,66.77,1.61
Vittorio Veneto,IT,64,1540520400,87,45.99,12.3,60.8,1.12
Killybegs,IE,68,1540523331,100,54.63,-8.45,45.89,23.76
Coihaique,CL,0,1540519200,71,-45.58,-72.07,50.0,3.36
Ulladulla,AU,75,1540519200,56,-35.36,150.48,68.0,13.87
Kudahuvadhoo,MV,92,1540523332,100,2.67,72.89,83.46,11.12
Adamas,GR,0,1540520400,57,36.73,24.43,50.0,4.7
Solsona,PH,20,1540522800,52,18.1,120.77,87.8,6.93
Lobva,RU,88,1540523332,81,59.19,60.52,50.7,8.77
Chapleau,CA,88,1540523333,99,47.85,-83.4,35.31,5.64
Kencong,ID,0,1540523333,60,-7.78,112.24,87.33,4.97
Katsuura,JP,20,1540519200,59,33.93,134.5,66.2,3.36
Egvekinot,RU,0,1540523334,71,66.32,-179.17,15.74,5.86
Strezhevoy,RU,0,1540521000,89,60.73,77.6,35.6,8.95
Waingapu,ID,12,1540523334,84,-9.65,120.26,85.44,4.41
Luang Prabang,LA,90,1540522800,78,19.89,102.14,78.8,4.7
Nelson Bay,AU,40,1540521000,64,-32.72,152.14,71.6,23.04
Porto Novo,BR,75,1540522800,94,-23.68,-45.44,68.0,2.28
Ambovombe,MG,0,1540523406,96,-25.18,46.09,67.76,11.23
Antofagasta,CL,90,1540519200,72,-23.65,-70.4,59.0,8.05
Aviles,ES,92,1540521000,93,43.55,-5.92,57.2,2.24
Nyurba,RU,80,1540523408,75,63.29,118.35,24.74,5.97
Kalmunai,LK,64,1540523409,100,7.42,81.82,78.11,4.41
Loei,TH,40,1540519200,88,17.49,101.72,80.6,4.7
Sheridan,US,1,1540521360,35,39.65,-105.03,59.0,4.63
Bowen,AU,0,1540519200,38,-20.01,148.25,89.6,4.7
Morehead,US,90,1540518780,76,38.18,-83.43,48.2,2.95
Luderitz,NA,24,1540519200,64,-26.65,15.16,68.0,2.24
Tamandare,BR,8,1540523411,94,-8.28,-70.75,76.22,2.17
Lorengau,PG,76,1540523412,100,-2.02,147.27,83.78,2.62
Hobyo,SO,76,1540523412,90,5.35,48.53,77.79,3.4
Kindu,CD,88,1540523413,97,-2.95,25.92,69.83,1.16
Lagunillas,VE,0,1540523413,100,8.5,-71.39,54.66,1.5
Port Hedland,AU,0,1540521000,27,-20.31,118.58,87.8,13.87
Bundaberg,AU,0,1540523413,84,-24.87,152.35,78.92,15.82
Flin Flon,CA,36,1540523378,86,54.77,-101.88,36.66,9.78
Sistranda,NO,75,1540522200,93,63.73,8.83,37.4,5.82
Narasannapeta,IN,0,1540523414,56,18.42,84.04,83.69,4.18
Garissa,KE,68,1540523414,97,-0.46,39.64,70.95,6.98
Halifax,CA,90,1540519200,74,44.65,-63.58,35.6,12.75
Soyo,AO,24,1540523415,98,-6.13,12.37,73.29,1.16
Luanda,AO,75,1540519200,94,-8.83,13.24,75.2,9.17
La Ciotat,FR,0,1540522800,93,43.17,5.6,60.8,3.36
Leogane,HT,76,1540523416,100,18.51,-72.63,77.12,2.73
Flinders,AU,75,1540519200,56,-34.58,150.85,68.0,13.87
Laguna,MX,20,1540518120,47,27.52,-110.01,77.0,8.05
Puerto Colombia,CO,75,1540519200,83,10.99,-74.96,82.4,9.17
Zlate Hory,CZ,32,1540523417,89,50.26,17.4,44.63,9.78
Atakpame,TG,0,1540523207,93,7.53,1.13,70.19,4.52
Selma,US,1,1540521300,49,36.57,-119.61,73.4,2.28
Saint-Augustin,FR,90,1540522800,100,44.83,-0.61,57.2,2.84
Wajir,KE,88,1540523419,98,1.75,40.07,71.36,5.97
Bonthe,SL,0,1540523420,93,7.53,-12.5,78.6,3.62
Santander,PH,20,1540522800,62,9.42,123.33,87.8,11.41
Luwuk,ID,0,1540523421,66,-0.95,122.79,88.19,6.42
Taksimo,RU,0,1540523421,51,56.36,114.84,17.94,2.84
Palmas,BR,0,1540523422,74,-10.18,-48.33,80.31,7.54
Maracaibo,CO,75,1540519200,73,3.41,-75.78,73.4,6.93
Carson City,US,1,1540522500,28,39.16,-119.77,60.8,1.5
Sur,OM,0,1540523423,92,22.57,59.53,82.29,6.31
Ambilobe,MG,12,1540523423,71,-13.19,49.05,68.79,5.3
Oistins,BB,20,1540519200,88,13.07,-59.53,77.0,3.36
Uvat,RU,8,1540523424,74,59.14,68.9,42.78,13.02
Evanston,US,90,1540522380,61,42.04,-87.69,48.2,4.7
Glendive,US,1,1540522500,42,47.11,-104.71,44.6,8.05
Temirtau,KZ,0,1540521000,92,50.05,72.96,26.6,4.47
Bodden Town,KY,20,1540522800,88,19.28,-81.25,80.6,1.05
Alofi,NU,92,1540519200,83,-19.06,-169.92,78.8,8.05
Ruda nad Moravou,CZ,92,1540523425,94,49.98,16.88,42.33,6.76
Along,IN,0,1540523425,47,28.17,94.8,67.8,1.95
Hervey Bay,AU,0,1540523426,78,-25.3,152.85,79.5,13.02
Rio Grande,BR,80,1540523426,97,-32.03,-52.1,65.42,4.52
Burnie,AU,32,1540523426,100,-41.05,145.91,55.43,16.26
Kilindoni,TZ,64,1540523427,100,-7.91,39.67,78.69,14.25
Katherine,AU,40,1540521000,32,-14.47,132.26,96.8,8.05
Mattru,SL,8,1540523427,93,7.62,-11.83,74.42,2.39
Sibolga,ID,80,1540523141,94,1.74,98.78,74.78,2.28
Pochutla,MX,40,1540518480,88,15.74,-96.47,82.4,2.84
Manbij,SY,75,1540520400,87,36.53,37.96,53.6,8.05
Sijunjung,ID,80,1540523428,99,-0.69,100.95,75.0,2.73
Plettenberg Bay,ZA,44,1540523428,96,-34.05,23.37,62.72,4.18
Boyolangu,ID,0,1540523428,60,-8.09,111.9,87.33,4.97
Lumberton,US,90,1540522500,77,30.27,-94.2,62.6,8.05
Victoria Point,AU,20,1540521000,69,-27.58,153.3,93.2,14.99
Katghora,IN,0,1540523429,56,22.51,82.55,74.01,4.29
Rockhampton,AU,0,1540521000,26,-23.38,150.51,95.0,4.7
Vostok,RU,68,1540523430,59,46.45,135.83,45.84,3.29
Peshkopi,AL,0,1540522200,75,41.68,20.43,41.0,3.36
Novogurovskiy,RU,44,1540523430,87,54.47,37.34,30.59,6.64
Tabou,CI,48,1540523430,100,4.42,-7.36,79.37,4.63
Ushtobe,KZ,0,1540523431,61,45.25,77.98,40.04,2.84
Rocha,UY,80,1540523431,84,-34.48,-54.34,58.22,4.07
Jalali,IN,20,1540523431,54,29.76,79.34,52.73,2.62
Buala,SB,88,1540523431,82,-8.15,159.59,86.16,6.64
San Ramon de la Nueva Oran,AR,88,1540523432,97,-23.13,-64.33,69.83,6.64
Ambulu,ID,0,1540523432,86,-8.35,113.61,81.93,5.41
Mayumba,GA,12,1540523433,97,-3.44,10.65,75.99,3.62
Dunedin,NZ,56,1540523218,86,-45.87,170.5,51.02,7.54
Ambon,FR,90,1540522800,100,47.55,-2.56,42.8,2.24
Voh,NC,32,1540523438,91,-20.95,164.69,77.88,8.77
Alyangula,AU,0,1540523294,74,-13.85,136.42,90.62,13.47
Shumskiy,RU,76,1540523388,65,54.83,99.13,36.98,6.76
Gravdal,NO,8,1540522200,86,59.79,5.78,41.0,4.7
